{"status": 0, "message": "OK", "data": [{"station":"28079004","name":"Pza. de Espa\u00f1a","address":"Plaza de Espa\u00f1a","altitude":635,"type":"UT","latitude":-3.71224722222222,"longitude":40.4238527777778},{"station":"28079008","name":"Escuelas Aguirre","address":"Entre C/ Alcal\u00e1 y C/ O' Donell","altitude":670,"type":"UT","latitude":-3.68231944444444,"longitude":40.4215638888889},{"station":"28079011","name":"Avda. Ram\u00f3n y Cajal","address":"Avda. Ram\u00f3n y Cajal esq. C/ Pr\u00edncipe de Vergara","altitude":708,"type":"UT","latitude":-3.67735555555556,"longitude":40.451475},{"station":"28079016","name":"Arturo Soria","address":"C/ Arturo Soria esq. C/ Vizconde de los Asilos","altitude":693,"type":"UF","latitude":-3.63923333333333,"longitude":40.4400472222222},{"station":"28079017","name":"Villaverde","address":"C/. Juan Pe\u00f1alver","altitude":604,"type":"UF","latitude":-3.71332222222222,"longitude":40.3471388888889},{"station":"28079018","name":"Farolillo","address":"Calle Farolillo - C/Ervigio","altitude":630,"type":"UF","latitude":-3.73185277777778,"longitude":40.3947805555556},{"station":"28079024","name":"Casa de Campo","address":"Casa de Campo (Terminal del Telef\u00e9rico)","altitude":642,"type":"S","latitude":-3.74734722222222,"longitude":40.4193555555556},{"station":"28079027","name":"Barajas Pueblo","address":"C/. J\u00fapiter 21 (Barajas)","altitude":621,"type":"UF","latitude":-3.58003055555556,"longitude":40.4769277777778},{"station":"28079035","name":"Pza. del Carmen","address":"Plaza del Carmen esq. Tres Cruces.","altitude":659,"type":"UF","latitude":-3.70317222222222,"longitude":40.4192083333333},{"station":"28079036","name":"Moratalaz","address":"Avd. Moratalaz esq. Camino de los Vinateros","altitude":685,"type":"UT","latitude":-3.64530555555556,"longitude":40.4079472222222},{"station":"28079038","name":"Cuatro Caminos","address":"Avda. Pablo Iglesias esq. C/ Marqu\u00e9s de Lema","altitude":698,"type":"UT","latitude":-3.70712777777778,"longitude":40.4455444444444},{"station":"28079039","name":"Barrio del Pilar","address":"Avd. Betanzos esq. C/ Monforte de Lemos","altitude":674,"type":"UT","latitude":-3.71154166666667,"longitude":40.4782277777778},{"station":"28079040","name":"Vallecas","address":"C/ Arroyo del Olivar esq. C/ R\u00edo Grande.","altitude":677,"type":"UF","latitude":-3.65152222222222,"longitude":40.3881527777778},{"station":"28079047","name":"Mendez Alvaro","address":"C/ Juan de Mariana / Pza. Amanecer Mendez Alvaro","altitude":599,"type":"UF","latitude":-3.686825,"longitude":40.3981138888889},{"station":"28079048","name":"Castellana","address":"C/ Jose Gutierrez Abascal","altitude":676,"type":"UT","latitude":-3.69036666666667,"longitude":40.4398972222222},{"station":"28079049","name":"Parque del Retiro","address":"Paseo Venezuela- Casa de Vacas","altitude":662,"type":"UF","latitude":-3.68258333333333,"longitude":40.4144444444444},{"station":"28079050","name":"Plaza Castilla","address":"Plaza Castilla (Canal)","altitude":728,"type":"UT","latitude":-3.68876944444444,"longitude":40.4655722222222},{"station":"28079054","name":"Ensanche de Vallecas","address":"Avda La Gavia / Avda. Las Suertes","altitude":627,"type":"UF","latitude":-3.61211666666667,"longitude":40.3729333333333},{"station":"28079055","name":"Urb. Embajada","address":"C/ Ria\u00f1o (Barajas)","altitude":618,"type":"UF","latitude":-3.58074722222222,"longitude":40.4625305555556},{"station":"28079056","name":"Pza. Fern\u00e1ndez Ladreda","address":"Pza. Fern\u00e1ndez Ladreda - Avda. Oporto","altitude":604,"type":"UT","latitude":-3.71872777777778,"longitude":40.3849638888889},{"station":"28079057","name":"Sanchinarro","address":"C/ Princesa de Eboli esq C/ Maria Tudor","altitude":700,"type":"UF","latitude":-3.66050277777778,"longitude":40.4942083333333},{"station":"28079058","name":"El Pardo","address":"Avda. La Guardia","altitude":615,"type":"S","latitude":-3.77461111111111,"longitude":40.5180583333333},{"station":"28079059","name":"Juan Carlos I","address":"Parque Juan Carlos I (frente oficinas mantenimiento)","altitude":660,"type":"S","latitude":-3.60907222222222,"longitude":40.46525},{"station":"28079060","name":"Tres Olivos","address":"Plaza Tres Olivos","altitude":715,"type":"UF","latitude":-3.68976111111111,"longitude":40.5005888888889}]}
